{
  "type": "FeatureCollection",
  "features": [
    {
      "type": "Feature",
      "properties": {
        "name": "Sunalta",
        "transit_type": "CTrain",
        "lines": [
          "Blue Line (202)"
        ]
      },
      "geometry": {
        "type": "Point",
        "coordinates": [
          -114.0993987,
          51.0447528
        ]
      }
    },
    {
      "type": "Feature",
      "properties": {
        "name": "Westbrook",
        "transit_type": "CTrain & MAX Hub",
        "lines": [
          "Blue Line (202)",
          "MAX Teal"
        ]
      },
      "geometry": {
        "type": "Point",
        "coordinates": [
          -114.1365332,
          51.0399531
        ]
      }
    },
    {
      "type": "Feature",
      "properties": {
        "name": "Banff Trail",
        "transit_type": "CTrain",
        "lines": [
          "Red Line (201)"
        ]
      },
      "geometry": {
        "type": "Point",
        "coordinates": [
          -114.1155185,
          51.0709277
        ]
      }
    },
    {
      "type": "Feature",
      "properties": {
        "name": "Lions Park",
        "transit_type": "CTrain",
        "lines": [
          "Red Line (201)"
        ]
      },
      "geometry": {
        "type": "Point",
        "coordinates": [
          -114.1033521,
          51.0650448
        ]
      }
    },
    {
      "type": "Feature",
      "properties": {
        "name": "Sunnyside",
        "transit_type": "CTrain",
        "lines": [
          "Red Line (201)"
        ]
      },
      "geometry": {
        "type": "Point",
        "coordinates": [
          -114.0844141,
          51.0559641
        ]
      }
    },
    {
      "type": "Feature",
      "properties": {
        "name": "Shawnessy",
        "transit_type": "CTrain",
        "lines": [
          "Red Line (201)"
        ]
      },
      "geometry": {
        "type": "Point",
        "coordinates": [
          -114.0705997,
          50.9106156
        ]
      }
    },
    {
      "type": "Feature",
      "properties": {
        "name": "Downtown West\u2013Kerby",
        "transit_type": "CTrain",
        "lines": []
      },
      "geometry": {
        "type": "Point",
        "coordinates": [
          -114.0873533,
          51.0471918
        ]
      }
    },
    {
      "type": "Feature",
      "properties": {
        "name": "45 Street",
        "transit_type": "CTrain",
        "lines": [
          "Blue Line (202)"
        ]
      },
      "geometry": {
        "type": "Point",
        "coordinates": [
          -114.1543052,
          51.0379869
        ]
      }
    },
    {
      "type": "Feature",
      "properties": {
        "name": "Sirocco",
        "transit_type": "CTrain",
        "lines": [
          "Blue Line (202)"
        ]
      },
      "geometry": {
        "type": "Point",
        "coordinates": [
          -114.1688924,
          51.0384643
        ]
      }
    },
    {
      "type": "Feature",
      "properties": {
        "name": "6 Street Southwest & 4 Street Southwest",
        "transit_type": "CTrain & MAX Hub",
        "lines": [
          "Blue Line (202)",
          "Red Line (201)"
        ]
      },
      "geometry": {
        "type": "Point",
        "coordinates": [
          -114.0737922,
          51.046812849999995
        ]
      }
    },
    {
      "type": "Feature",
      "properties": {
        "name": "City Hall/Bow Valley College",
        "transit_type": "CTrain & MAX Hub",
        "lines": [
          "Blue Line (202)",
          "MAX Purple",
          "Red Line (201)"
        ]
      },
      "geometry": {
        "type": "Point",
        "coordinates": [
          -114.0567906,
          51.0463194
        ]
      }
    },
    {
      "type": "Feature",
      "properties": {
        "name": "1 Street Southwest & Centre Street",
        "transit_type": "CTrain & MAX Hub",
        "lines": [
          "Blue Line (202)",
          "MAX Green",
          "MAX Purple",
          "Red Line (201)"
        ]
      },
      "geometry": {
        "type": "Point",
        "coordinates": [
          -114.0630105,
          51.04649245
        ]
      }
    },
    {
      "type": "Feature",
      "properties": {
        "name": "3 Street Southwest",
        "transit_type": "CTrain & MAX Hub",
        "lines": [
          "Blue Line (202)",
          "Red Line (201)"
        ]
      },
      "geometry": {
        "type": "Point",
        "coordinates": [
          -114.0691581,
          51.0466043
        ]
      }
    },
    {
      "type": "Feature",
      "properties": {
        "name": "Shaganappi Point",
        "transit_type": "CTrain",
        "lines": [
          "Blue Line (202)"
        ]
      },
      "geometry": {
        "type": "Point",
        "coordinates": [
          -114.1251795,
          51.0416857
        ]
      }
    },
    {
      "type": "Feature",
      "properties": {
        "name": "Franklin",
        "transit_type": "CTrain",
        "lines": [
          "Blue Line (202)"
        ]
      },
      "geometry": {
        "type": "Point",
        "coordinates": [
          -113.9938157,
          51.0475878
        ]
      }
    },
    {
      "type": "Feature",
      "properties": {
        "name": "Marlborough",
        "transit_type": "CTrain",
        "lines": [
          "Blue Line (202)"
        ]
      },
      "geometry": {
        "type": "Point",
        "coordinates": [
          -113.981707,
          51.0581991
        ]
      }
    },
    {
      "type": "Feature",
      "properties": {
        "name": "Rundle",
        "transit_type": "CTrain & MAX Hub",
        "lines": [
          "Blue Line (202)",
          "MAX Orange"
        ]
      },
      "geometry": {
        "type": "Point",
        "coordinates": [
          -113.9817327,
          51.0759081
        ]
      }
    },
    {
      "type": "Feature",
      "properties": {
        "name": "Erlton/Stampede",
        "transit_type": "CTrain",
        "lines": [
          "Red Line (201)"
        ]
      },
      "geometry": {
        "type": "Point",
        "coordinates": [
          -114.0589663,
          51.0316742
        ]
      }
    },
    {
      "type": "Feature",
      "properties": {
        "name": "69 Street",
        "transit_type": "CTrain",
        "lines": [
          "Blue Line (202)"
        ]
      },
      "geometry": {
        "type": "Point",
        "coordinates": [
          -114.1876226,
          51.0376441
        ]
      }
    },
    {
      "type": "Feature",
      "properties": {
        "name": "Saddletowne",
        "transit_type": "CTrain & MAX Hub",
        "lines": [
          "Blue Line (202)",
          "MAX Orange"
        ]
      },
      "geometry": {
        "type": "Point",
        "coordinates": [
          -113.9481904,
          51.1256917
        ]
      }
    },
    {
      "type": "Feature",
      "properties": {
        "name": "Whitehorn",
        "transit_type": "CTrain",
        "lines": [
          "Blue Line (202)"
        ]
      },
      "geometry": {
        "type": "Point",
        "coordinates": [
          -113.9817376,
          51.0865701
        ]
      }
    },
    {
      "type": "Feature",
      "properties": {
        "name": "Mcknight-Westwinds",
        "transit_type": "CTrain",
        "lines": [
          "Blue Line (202)"
        ]
      },
      "geometry": {
        "type": "Point",
        "coordinates": [
          -113.9756659,
          51.1092069
        ]
      }
    },
    {
      "type": "Feature",
      "properties": {
        "name": "Martindale",
        "transit_type": "CTrain",
        "lines": [
          "Blue Line (202)"
        ]
      },
      "geometry": {
        "type": "Point",
        "coordinates": [
          -113.9678886,
          51.1177154
        ]
      }
    },
    {
      "type": "Feature",
      "properties": {
        "name": "Victoria Park/Stampede",
        "transit_type": "CTrain",
        "lines": [
          "Red Line (201)"
        ]
      },
      "geometry": {
        "type": "Point",
        "coordinates": [
          -114.0582258,
          51.0386666
        ]
      }
    },
    {
      "type": "Feature",
      "properties": {
        "name": "39 Avenue",
        "transit_type": "CTrain",
        "lines": [
          "Red Line (201)"
        ]
      },
      "geometry": {
        "type": "Point",
        "coordinates": [
          -114.0613877,
          51.0175722
        ]
      }
    },
    {
      "type": "Feature",
      "properties": {
        "name": "Chinook",
        "transit_type": "CTrain",
        "lines": []
      },
      "geometry": {
        "type": "Point",
        "coordinates": [
          -114.065761,
          50.9970881
        ]
      }
    },
    {
      "type": "Feature",
      "properties": {
        "name": "Heritage",
        "transit_type": "CTrain & MAX Hub",
        "lines": [
          "Red Line (201)"
        ]
      },
      "geometry": {
        "type": "Point",
        "coordinates": [
          -114.0742526,
          50.9781243
        ]
      }
    },
    {
      "type": "Feature",
      "properties": {
        "name": "University",
        "transit_type": "CTrain",
        "lines": [
          "Red Line (201)"
        ]
      },
      "geometry": {
        "type": "Point",
        "coordinates": [
          -114.122957,
          51.0800072
        ]
      }
    },
    {
      "type": "Feature",
      "properties": {
        "name": "Southland",
        "transit_type": "CTrain",
        "lines": [
          "Red Line (201)"
        ]
      },
      "geometry": {
        "type": "Point",
        "coordinates": [
          -114.0765725,
          50.9634836
        ]
      }
    },
    {
      "type": "Feature",
      "properties": {
        "name": "Anderson",
        "transit_type": "CTrain",
        "lines": [
          "Red Line (201)"
        ]
      },
      "geometry": {
        "type": "Point",
        "coordinates": [
          -114.0746917,
          50.955116
        ]
      }
    },
    {
      "type": "Feature",
      "properties": {
        "name": "Crowfoot",
        "transit_type": "CTrain",
        "lines": [
          "Red Line (201)"
        ]
      },
      "geometry": {
        "type": "Point",
        "coordinates": [
          -114.2069775,
          51.1226383
        ]
      }
    },
    {
      "type": "Feature",
      "properties": {
        "name": "Canyon Meadows",
        "transit_type": "CTrain",
        "lines": [
          "Red Line (201)"
        ]
      },
      "geometry": {
        "type": "Point",
        "coordinates": [
          -114.0698749,
          50.9356312
        ]
      }
    },
    {
      "type": "Feature",
      "properties": {
        "name": "Sait/Auarts/Jubilee",
        "transit_type": "CTrain",
        "lines": [
          "Red Line (201)"
        ]
      },
      "geometry": {
        "type": "Point",
        "coordinates": [
          -114.091264,
          51.063097
        ]
      }
    },
    {
      "type": "Feature",
      "properties": {
        "name": "Somerset\u2013Bridlewood",
        "transit_type": "CTrain",
        "lines": [
          "Red Line (201)"
        ]
      },
      "geometry": {
        "type": "Point",
        "coordinates": [
          -114.069045,
          50.8991837
        ]
      }
    },
    {
      "type": "Feature",
      "properties": {
        "name": "Dalhousie",
        "transit_type": "CTrain",
        "lines": [
          "Red Line (201)"
        ]
      },
      "geometry": {
        "type": "Point",
        "coordinates": [
          -114.1607313,
          51.1033849
        ]
      }
    },
    {
      "type": "Feature",
      "properties": {
        "name": "Tuscany",
        "transit_type": "CTrain",
        "lines": [
          "Red Line (201)"
        ]
      },
      "geometry": {
        "type": "Point",
        "coordinates": [
          -114.235678,
          51.1345155
        ]
      }
    },
    {
      "type": "Feature",
      "properties": {
        "name": "Brentwood",
        "transit_type": "CTrain & MAX Hub",
        "lines": [
          "MAX Orange",
          "Red Line (201)"
        ]
      },
      "geometry": {
        "type": "Point",
        "coordinates": [
          -114.1314822,
          51.0868407
        ]
      }
    },
    {
      "type": "Feature",
      "properties": {
        "name": "Fish Creek\u2013Lacombe",
        "transit_type": "CTrain",
        "lines": [
          "Red Line (201)"
        ]
      },
      "geometry": {
        "type": "Point",
        "coordinates": [
          -114.0730702,
          50.9230139
        ]
      }
    },
    {
      "type": "Feature",
      "properties": {
        "name": "Bridgeland/Memorial",
        "transit_type": "CTrain",
        "lines": [
          "Blue Line (202)"
        ]
      },
      "geometry": {
        "type": "Point",
        "coordinates": [
          -114.0410285,
          51.0491285
        ]
      }
    },
    {
      "type": "Feature",
      "properties": {
        "name": "Zoo",
        "transit_type": "CTrain",
        "lines": [
          "Blue Line (202)"
        ]
      },
      "geometry": {
        "type": "Point",
        "coordinates": [
          -114.0249761,
          51.0473574
        ]
      }
    },
    {
      "type": "Feature",
      "properties": {
        "name": "Barlow/Max Bell",
        "transit_type": "CTrain",
        "lines": [
          "Blue Line (202)"
        ]
      },
      "geometry": {
        "type": "Point",
        "coordinates": [
          -114.0073504,
          51.0456366
        ]
      }
    },
    {
      "type": "Feature",
      "properties": {
        "name": "7 Street Southwest & 8 Street Southwest",
        "transit_type": "CTrain & MAX Hub",
        "lines": [
          "Blue Line (202)",
          "MAX Green",
          "Red Line (201)"
        ]
      },
      "geometry": {
        "type": "Point",
        "coordinates": [
          -114.078722,
          51.046943549999995
        ]
      }
    },
    {
      "type": "Feature",
      "properties": {
        "name": "Huntington Hills",
        "transit_type": "MAX",
        "lines": [
          "MAX Green"
        ],
        "original_osm_names": "SB Centre ST N @ 64 AV N & NB Centre ST N @ 64 AV N"
      },
      "geometry": {
        "type": "Point",
        "coordinates": [
          -114.06246275000001,
          51.110703099999995
        ]
      }
    },
    {
      "type": "Feature",
      "properties": {
        "name": "Thorncliffe",
        "transit_type": "MAX",
        "lines": [
          "MAX Green"
        ],
        "original_osm_names": "SB Centre ST N @ 56 AV N"
      },
      "geometry": {
        "type": "Point",
        "coordinates": [
          -114.06244065,
          51.1025949
        ]
      }
    },
    {
      "type": "Feature",
      "properties": {
        "name": "Centre St N & 78 Av N",
        "transit_type": "MAX",
        "lines": [
          "MAX Green"
        ],
        "original_osm_names": "NB Centre ST N @ 78 AV N & SB Centre ST N @ 78 AV N"
      },
      "geometry": {
        "type": "Point",
        "coordinates": [
          -114.07143715,
          51.1226844
        ]
      }
    },
    {
      "type": "Feature",
      "properties": {
        "name": "Beddington Heights",
        "transit_type": "MAX",
        "lines": [
          "MAX Green"
        ],
        "original_osm_names": "SB Centre ST N @ N of Beddington BV N & NB Centre ST N @ N of Beddington BV N"
      },
      "geometry": {
        "type": "Point",
        "coordinates": [
          -114.07147305000001,
          51.126901149999995
        ]
      }
    },
    {
      "type": "Feature",
      "properties": {
        "name": "Country Hills Village",
        "transit_type": "MAX",
        "lines": [
          "MAX Green"
        ],
        "original_osm_names": "North Pointe Terminal A (SB Country Village Link NE @ Country Village WY NE)"
      },
      "geometry": {
        "type": "Point",
        "coordinates": [
          -114.067957,
          51.1570352
        ]
      }
    },
    {
      "type": "Feature",
      "properties": {
        "name": "Panorama Hills",
        "transit_type": "MAX",
        "lines": [
          "MAX Green"
        ],
        "original_osm_names": "SB Harvest Hills BV @ Panamount GA NW"
      },
      "geometry": {
        "type": "Point",
        "coordinates": [
          -114.069807,
          51.1558593
        ]
      }
    },
    {
      "type": "Feature",
      "properties": {
        "name": "Pump Hill",
        "transit_type": "MAX",
        "lines": [
          "MAX Yellow"
        ],
        "original_osm_names": "Southland Leisure Centre (EB) & Southland Leisure Centre (WB)"
      },
      "geometry": {
        "type": "Point",
        "coordinates": [
          -114.10613255000001,
          50.9614102
        ]
      }
    },
    {
      "type": "Feature",
      "properties": {
        "name": "Downtown Commercial Core",
        "transit_type": "MAX",
        "lines": [],
        "original_osm_names": "EB 9 Avenue & Macleod Trail SE"
      },
      "geometry": {
        "type": "Point",
        "coordinates": [
          -114.0574532,
          51.0443942
        ]
      }
    },
    {
      "type": "Feature",
      "properties": {
        "name": "Inglewood",
        "transit_type": "MAX",
        "lines": [
          "MAX Purple"
        ],
        "original_osm_names": "EB 9 AV SE @ 12 ST SE & WB 9 Avenue & 12 Street"
      },
      "geometry": {
        "type": "Point",
        "coordinates": [
          -114.03445794999999,
          51.04129185
        ]
      }
    },
    {
      "type": "Feature",
      "properties": {
        "name": "Downtown East Village",
        "transit_type": "MAX",
        "lines": [
          "MAX Purple"
        ],
        "original_osm_names": "WB 9 Avenue & 6 Street SE & EB 9 Avenue & 6 Street SE"
      },
      "geometry": {
        "type": "Point",
        "coordinates": [
          -114.04878529999999,
          51.04410915
        ]
      }
    },
    {
      "type": "Feature",
      "properties": {
        "name": "9 Av Se & 9 St Se",
        "transit_type": "MAX",
        "lines": [
          "MAX Purple"
        ],
        "original_osm_names": "WB 9 AV SE @ 9 ST SE & EB 9 AV SE @ 8 ST SE"
      },
      "geometry": {
        "type": "Point",
        "coordinates": [
          -114.0405007,
          51.0431037
        ]
      }
    },
    {
      "type": "Feature",
      "properties": {
        "name": "Forest Lawn",
        "transit_type": "MAX",
        "lines": [],
        "original_osm_names": "44th Street SE Station (EB) & 44th Street SE Station (WB)"
      },
      "geometry": {
        "type": "Point",
        "coordinates": [
          -113.97001954999999,
          51.0378424
        ]
      }
    },
    {
      "type": "Feature",
      "properties": {
        "name": "Harvest Hills",
        "transit_type": "MAX",
        "lines": [
          "MAX Green"
        ],
        "original_osm_names": "SB Harvest Hills BV @ Country Hills RD NW & NB Harvest Hills BV @ 96 AV NE"
      },
      "geometry": {
        "type": "Point",
        "coordinates": [
          -114.06805265,
          51.14323765
        ]
      }
    },
    {
      "type": "Feature",
      "properties": {
        "name": "Highland Park",
        "transit_type": "MAX",
        "lines": [
          "MAX Green"
        ],
        "original_osm_names": "NB Centre ST N @ 40 AV N & SB Centre ST N @ 40 AV N"
      },
      "geometry": {
        "type": "Point",
        "coordinates": [
          -114.0624663,
          51.08872195
        ]
      }
    },
    {
      "type": "Feature",
      "properties": {
        "name": "Tuxedo Park",
        "transit_type": "MAX",
        "lines": [
          "MAX Green",
          "MAX Orange"
        ],
        "original_osm_names": "Northbound Centre Street N @ 17 Avenue N & Centre Street N Station (WB) & Southbound Centre Street N @ 16 Avenue N & Centre Street N Station (EB)"
      },
      "geometry": {
        "type": "Point",
        "coordinates": [
          -114.062448075,
          51.06700815
        ]
      }
    },
    {
      "type": "Feature",
      "properties": {
        "name": "16Th Av Nw & 19Th St Nw",
        "transit_type": "MAX",
        "lines": [
          "MAX Orange"
        ],
        "original_osm_names": "WB 16th Av NW @ 19th St NW"
      },
      "geometry": {
        "type": "Point",
        "coordinates": [
          -114.1079825,
          51.0671459
        ]
      }
    },
    {
      "type": "Feature",
      "properties": {
        "name": "Riverbend",
        "transit_type": "MAX",
        "lines": [
          "MAX Teal"
        ],
        "original_osm_names": "Riverbend Station (SB) & Riverbend Station (NB)"
      },
      "geometry": {
        "type": "Point",
        "coordinates": [
          -114.0158298,
          50.97647225
        ]
      }
    },
    {
      "type": "Feature",
      "properties": {
        "name": "Crowchild Tr & 17 Av Sw Overpass",
        "transit_type": "MAX",
        "lines": [
          "MAX Yellow"
        ],
        "original_osm_names": "SB Crowchild TR @ 17 AV SW Overpass & 17 Avenue SW Station (NB)"
      },
      "geometry": {
        "type": "Point",
        "coordinates": [
          -114.11337945,
          51.03758885
        ]
      }
    },
    {
      "type": "Feature",
      "properties": {
        "name": "9 Av Se",
        "transit_type": "MAX",
        "lines": [
          "MAX Purple"
        ],
        "original_osm_names": "EB 9 AV SE & Centre ST S"
      },
      "geometry": {
        "type": "Point",
        "coordinates": [
          -114.062335,
          51.0444865
        ]
      }
    },
    {
      "type": "Feature",
      "properties": {
        "name": "9 Av Se & The Confluence",
        "transit_type": "MAX",
        "lines": [],
        "original_osm_names": "WB 9 AV SE @ The Confluence"
      },
      "geometry": {
        "type": "Point",
        "coordinates": [
          -114.0451364,
          51.043982
        ]
      }
    },
    {
      "type": "Feature",
      "properties": {
        "name": "Downtown West End",
        "transit_type": "MAX",
        "lines": [],
        "original_osm_names": "EB 9 AV SE @ 9 ST SW"
      },
      "geometry": {
        "type": "Point",
        "coordinates": [
          -114.084177,
          51.0451282
        ]
      }
    },
    {
      "type": "Feature",
      "properties": {
        "name": "Woodview",
        "transit_type": "MAX",
        "lines": [
          "MAX Yellow"
        ],
        "original_osm_names": "Woodview Station (SB) & Woodview Station (NB)"
      },
      "geometry": {
        "type": "Point",
        "coordinates": [
          -114.1179783,
          50.941026949999994
        ]
      }
    },
    {
      "type": "Feature",
      "properties": {
        "name": "Cedarbrae",
        "transit_type": "MAX",
        "lines": [
          "MAX Yellow"
        ],
        "original_osm_names": "Braeside Station (NB) & Cedarbrae Station (SB)"
      },
      "geometry": {
        "type": "Point",
        "coordinates": [
          -114.11799225,
          50.95402215
        ]
      }
    },
    {
      "type": "Feature",
      "properties": {
        "name": "North Glenmore",
        "transit_type": "MAX",
        "lines": [
          "MAX Teal",
          "MAX Yellow"
        ],
        "original_osm_names": "54 Avenue SW Station (NB) & 54 Avenue SW Station (SB)"
      },
      "geometry": {
        "type": "Point",
        "coordinates": [
          -114.11798175,
          51.0054836
        ]
      }
    },
    {
      "type": "Feature",
      "properties": {
        "name": "Mount Royal University",
        "transit_type": "MAX",
        "lines": [
          "MAX Teal",
          "MAX Yellow"
        ],
        "original_osm_names": "Mount Royal University Station (NB)"
      },
      "geometry": {
        "type": "Point",
        "coordinates": [
          -114.1260808,
          51.0110658
        ]
      }
    },
    {
      "type": "Feature",
      "properties": {
        "name": "Richmond",
        "transit_type": "MAX",
        "lines": [
          "MAX Yellow"
        ],
        "original_osm_names": "SB Crowchild TR @ 33 AV SW & Marda Loop Station"
      },
      "geometry": {
        "type": "Point",
        "coordinates": [
          -114.11800435,
          51.02454365
        ]
      }
    },
    {
      "type": "Feature",
      "properties": {
        "name": "Crowchild Trail",
        "transit_type": "MAX",
        "lines": [
          "MAX Yellow"
        ],
        "original_osm_names": "Crowchild Trail & 26 Avenue NB & SB Crowchild TR @ 26 AV SW Overpass"
      },
      "geometry": {
        "type": "Point",
        "coordinates": [
          -114.1180244,
          51.03014885
        ]
      }
    },
    {
      "type": "Feature",
      "properties": {
        "name": "Mount Royal University",
        "transit_type": "MAX",
        "lines": [],
        "original_osm_names": "Mount Royal University Terminal"
      },
      "geometry": {
        "type": "Point",
        "coordinates": [
          -114.1335674,
          51.0139644
        ]
      }
    },
    {
      "type": "Feature",
      "properties": {
        "name": "Lincoln Park",
        "transit_type": "MAX",
        "lines": [],
        "original_osm_names": "Sarcee Road Station (EB) & Sarcee Road Station (WB)"
      },
      "geometry": {
        "type": "Point",
        "coordinates": [
          -114.13994134999999,
          51.012461650000006
        ]
      }
    },
    {
      "type": "Feature",
      "properties": {
        "name": "5 Av Sw & 1 St Sw",
        "transit_type": "MAX",
        "lines": [
          "MAX Green",
          "MAX Yellow"
        ],
        "original_osm_names": "EB 5 AV SW @ 1 ST SW & SB 1 ST SW & 6 AV SW & EB 5 AV SW @ 2 ST SW"
      },
      "geometry": {
        "type": "Point",
        "coordinates": [
          -114.06601583333334,
          51.047946499999995
        ]
      }
    },
    {
      "type": "Feature",
      "properties": {
        "name": "Falshire Drive",
        "transit_type": "MAX",
        "lines": [
          "MAX Orange"
        ],
        "original_osm_names": "Falshire Drive Station (NB) & Falshire Drive Station (SB)"
      },
      "geometry": {
        "type": "Point",
        "coordinates": [
          -113.9498232,
          51.1066475
        ]
      }
    },
    {
      "type": "Feature",
      "properties": {
        "name": "Falconridge",
        "transit_type": "MAX",
        "lines": [
          "MAX Orange"
        ],
        "original_osm_names": "Castleridge Boulevard Station (NB) & Castleridge Boulevard Station (SB)"
      },
      "geometry": {
        "type": "Point",
        "coordinates": [
          -113.95832300000001,
          51.09982085
        ]
      }
    },
    {
      "type": "Feature",
      "properties": {
        "name": "University District",
        "transit_type": "MAX",
        "lines": [
          "MAX Orange"
        ],
        "original_osm_names": "Alberta Children's Hospital Station (SB) & Alberta Children's Hospital Station NB"
      },
      "geometry": {
        "type": "Point",
        "coordinates": [
          -114.145777,
          51.07546285
        ]
      }
    },
    {
      "type": "Feature",
      "properties": {
        "name": "Glenbrook",
        "transit_type": "MAX",
        "lines": [
          "MAX Teal"
        ],
        "original_osm_names": "Richmond Road Station (SB) & Richmond Road Station (NB)"
      },
      "geometry": {
        "type": "Point",
        "coordinates": [
          -114.14115705,
          51.02250775
        ]
      }
    },
    {
      "type": "Feature",
      "properties": {
        "name": "Glendale",
        "transit_type": "MAX",
        "lines": [],
        "original_osm_names": "26th Avenue SW Station (NB) & 26 Avenue SW Station (SB)"
      },
      "geometry": {
        "type": "Point",
        "coordinates": [
          -114.14119025,
          51.0300454
        ]
      }
    },
    {
      "type": "Feature",
      "properties": {
        "name": "Eagle Ridge",
        "transit_type": "MAX",
        "lines": [],
        "original_osm_names": "Rockyview Hospital (Northbound) & Rockyview Hospital (Southbound)"
      },
      "geometry": {
        "type": "Point",
        "coordinates": [
          -114.0957325,
          50.9875418
        ]
      }
    },
    {
      "type": "Feature",
      "properties": {
        "name": "Glenmore Park",
        "transit_type": "MAX",
        "lines": [],
        "original_osm_names": "Heritage Park (Northbound) & Heritage Park (Southbound)"
      },
      "geometry": {
        "type": "Point",
        "coordinates": [
          -114.0955721,
          50.9802112
        ]
      }
    },
    {
      "type": "Feature",
      "properties": {
        "name": "Chinook Park",
        "transit_type": "MAX",
        "lines": [],
        "original_osm_names": "Elbow Drive Station (WB) & Elbow Drive Station (EB)"
      },
      "geometry": {
        "type": "Point",
        "coordinates": [
          -114.08329625,
          50.9795696
        ]
      }
    },
    {
      "type": "Feature",
      "properties": {
        "name": "Fairview",
        "transit_type": "MAX",
        "lines": [],
        "original_osm_names": "Fairmount Drive Station (EB) & Fairmount Drive Station (WB)"
      },
      "geometry": {
        "type": "Point",
        "coordinates": [
          -114.06087785,
          50.9795902
        ]
      }
    },
    {
      "type": "Feature",
      "properties": {
        "name": "East Fairview Industrial",
        "transit_type": "MAX",
        "lines": [],
        "original_osm_names": "Deerfoot Meadows Station (EB) & Deerfoot Meadows Station (WB)"
      },
      "geometry": {
        "type": "Point",
        "coordinates": [
          -114.04187354999999,
          50.98724425
        ]
      }
    },
    {
      "type": "Feature",
      "properties": {
        "name": "Quarry Park",
        "transit_type": "MAX",
        "lines": [],
        "original_osm_names": "Quarry Park Station (SB) & Quarry Park Station (NB)"
      },
      "geometry": {
        "type": "Point",
        "coordinates": [
          -114.01210835,
          50.963393800000006
        ]
      }
    },
    {
      "type": "Feature",
      "properties": {
        "name": "Shepard Industrial",
        "transit_type": "MAX",
        "lines": [],
        "original_osm_names": "Douglas Glen Terminal (WB 114 Avenue SE)"
      },
      "geometry": {
        "type": "Point",
        "coordinates": [
          -113.997197,
          50.9522386
        ]
      }
    },
    {
      "type": "Feature",
      "properties": {
        "name": "Bayview",
        "transit_type": "MAX",
        "lines": [],
        "original_osm_names": "90 Avenue SW (Southbound) & 90 Avenue SW (Northbound)"
      },
      "geometry": {
        "type": "Point",
        "coordinates": [
          -114.09561070000001,
          50.9737293
        ]
      }
    },
    {
      "type": "Feature",
      "properties": {
        "name": "Mayland Heights",
        "transit_type": "MAX",
        "lines": [
          "MAX Orange"
        ],
        "original_osm_names": "19th Street NE Station (EB) & 19th Street NE Station (WB)"
      },
      "geometry": {
        "type": "Point",
        "coordinates": [
          -114.0135199,
          51.0669605
        ]
      }
    },
    {
      "type": "Feature",
      "properties": {
        "name": "Edmonton Trail",
        "transit_type": "MAX",
        "lines": [
          "MAX Orange"
        ],
        "original_osm_names": "Edmonton Trail Station (EB) & Edmonton Trail Station (WB)"
      },
      "geometry": {
        "type": "Point",
        "coordinates": [
          -114.05624184999999,
          51.066932550000004
        ]
      }
    },
    {
      "type": "Feature",
      "properties": {
        "name": "Mount Pleasant",
        "transit_type": "MAX",
        "lines": [
          "MAX Orange"
        ],
        "original_osm_names": "4th Street NW Station (WB) & 4th Street NW Station (EB)"
      },
      "geometry": {
        "type": "Point",
        "coordinates": [
          -114.0718107,
          51.06692835
        ]
      }
    },
    {
      "type": "Feature",
      "properties": {
        "name": "Hillhurst",
        "transit_type": "MAX",
        "lines": [
          "MAX Orange"
        ],
        "original_osm_names": "SAIT Station (WB) & SAIT Station (EB)"
      },
      "geometry": {
        "type": "Point",
        "coordinates": [
          -114.08862214999999,
          51.066886249999996
        ]
      }
    },
    {
      "type": "Feature",
      "properties": {
        "name": "Hounsfield Heights/Briar Hill",
        "transit_type": "MAX",
        "lines": [
          "MAX Orange"
        ],
        "original_osm_names": "North Hill Station (EB)"
      },
      "geometry": {
        "type": "Point",
        "coordinates": [
          -114.1053171,
          51.066784
        ]
      }
    },
    {
      "type": "Feature",
      "properties": {
        "name": "St. Andrews Heights",
        "transit_type": "MAX",
        "lines": [
          "MAX Orange"
        ],
        "original_osm_names": "Foothills Medical Centre (WB) & Foothills Medical Centre (EB)"
      },
      "geometry": {
        "type": "Point",
        "coordinates": [
          -114.12922605,
          51.06846385
        ]
      }
    },
    {
      "type": "Feature",
      "properties": {
        "name": "Varsity",
        "transit_type": "MAX",
        "lines": [
          "MAX Orange"
        ],
        "original_osm_names": "31st Street NW Station (WB) & 31st Street NW Station (EB)"
      },
      "geometry": {
        "type": "Point",
        "coordinates": [
          -114.13001005000001,
          51.0818343
        ]
      }
    },
    {
      "type": "Feature",
      "properties": {
        "name": "Balmoral",
        "transit_type": "MAX",
        "lines": [
          "MAX Green"
        ],
        "original_osm_names": "SB Centre St N @ 28 Ave N & NB Centre St N @ 28 Ave N"
      },
      "geometry": {
        "type": "Point",
        "coordinates": [
          -114.06255375,
          51.0778717
        ]
      }
    },
    {
      "type": "Feature",
      "properties": {
        "name": "17Th Av Se & 84Th St Se",
        "transit_type": "MAX",
        "lines": [
          "MAX Purple"
        ],
        "original_osm_names": "WB 17th AV SE @ 84th ST SE"
      },
      "geometry": {
        "type": "Point",
        "coordinates": [
          -113.9090329,
          51.0379897
        ]
      }
    },
    {
      "type": "Feature",
      "properties": {
        "name": "9 Avenue Se",
        "transit_type": "MAX",
        "lines": [
          "MAX Purple"
        ],
        "original_osm_names": "9 Avenue SE Station (WB)"
      },
      "geometry": {
        "type": "Point",
        "coordinates": [
          -114.02129830000001,
          51.03666385
        ]
      }
    },
    {
      "type": "Feature",
      "properties": {
        "name": "Albert Park/Radisson Heights",
        "transit_type": "MAX",
        "lines": [],
        "original_osm_names": "33rd Street SE Station (WB) & 33rd Street SE Station (EB)"
      },
      "geometry": {
        "type": "Point",
        "coordinates": [
          -113.98663214999999,
          51.0378369
        ]
      }
    },
    {
      "type": "Feature",
      "properties": {
        "name": "Penbrooke Meadows",
        "transit_type": "MAX",
        "lines": [],
        "original_osm_names": "52nd Street SE Station (EB) & 52nd Street SE Station (WB)"
      },
      "geometry": {
        "type": "Point",
        "coordinates": [
          -113.9584,
          51.037851599999996
        ]
      }
    },
    {
      "type": "Feature",
      "properties": {
        "name": "36Th Street Se",
        "transit_type": "MAX",
        "lines": [],
        "original_osm_names": "36th Street SE Station (EB) & 36th Street SE Station (WB)"
      },
      "geometry": {
        "type": "Point",
        "coordinates": [
          -113.981606,
          51.037842049999995
        ]
      }
    },
    {
      "type": "Feature",
      "properties": {
        "name": "Belvedere",
        "transit_type": "MAX",
        "lines": [
          "MAX Purple"
        ],
        "original_osm_names": "SB East Hills SQ @ East Hills BV SE"
      },
      "geometry": {
        "type": "Point",
        "coordinates": [
          -113.911188,
          51.040748
        ]
      }
    },
    {
      "type": "Feature",
      "properties": {
        "name": "Capitol Hill",
        "transit_type": "MAX",
        "lines": [
          "MAX Orange"
        ],
        "original_osm_names": "North Hill Station (WB)"
      },
      "geometry": {
        "type": "Point",
        "coordinates": [
          -114.1010668,
          51.0671005
        ]
      }
    },
    {
      "type": "Feature",
      "properties": {
        "name": "Braeside",
        "transit_type": "MAX",
        "lines": [
          "MAX Yellow"
        ],
        "original_osm_names": "Oakridge Station (EB) & Oakridge Station (SB)"
      },
      "geometry": {
        "type": "Point",
        "coordinates": [
          -114.1174807,
          50.96080215
        ]
      }
    },
    {
      "type": "Feature",
      "properties": {
        "name": "Douglas Glen",
        "transit_type": "MAX",
        "lines": [
          "MAX Teal"
        ],
        "original_osm_names": "Douglas Glen Boulevard Station (SB) & Douglas Glen Boulevard Station (NB)"
      },
      "geometry": {
        "type": "Point",
        "coordinates": [
          -114.00739375,
          50.95721135
        ]
      }
    },
    {
      "type": "Feature",
      "properties": {
        "name": "Country Hills",
        "transit_type": "MAX",
        "lines": [
          "MAX Green"
        ],
        "original_osm_names": "SB Harvest Hills Boulevard @ Country Hillls Boulevard NW"
      },
      "geometry": {
        "type": "Point",
        "coordinates": [
          -114.0656959,
          51.1523164
        ]
      }
    },
    {
      "type": "Feature",
      "properties": {
        "name": "Harvest Hills Blvd & Harvest Oak Gate Ne",
        "transit_type": "MAX",
        "lines": [
          "MAX Green"
        ],
        "original_osm_names": "SB Harvest Hills Blvd @ Harvest Oak Gate NE"
      },
      "geometry": {
        "type": "Point",
        "coordinates": [
          -114.0643689,
          51.1465529
        ]
      }
    },
    {
      "type": "Feature",
      "properties": {
        "name": "Saddletowne Circle",
        "transit_type": "MAX",
        "lines": [
          "MAX Orange"
        ],
        "original_osm_names": "Saddletowne Circle Station (NB) & Saddletowne Circle Station (SB)"
      },
      "geometry": {
        "type": "Point",
        "coordinates": [
          -113.94677515000001,
          51.1207479
        ]
      }
    },
    {
      "type": "Feature",
      "properties": {
        "name": "Taradale",
        "transit_type": "MAX",
        "lines": [
          "MAX Orange"
        ],
        "original_osm_names": "Martindale Boulevard Station (SB) & Martindale Boulevard Station (NB)"
      },
      "geometry": {
        "type": "Point",
        "coordinates": [
          -113.94676344999999,
          51.11415475
        ]
      }
    },
    {
      "type": "Feature",
      "properties": {
        "name": "Falconridge Boulevard Ne & Castlebrook Dr Ne",
        "transit_type": "MAX",
        "lines": [
          "MAX Orange"
        ],
        "original_osm_names": "Falconridge Boulevard NE @ Castlebrook Dr NE & Falconridge Boulevard NE @ Falconworth Rd NE"
      },
      "geometry": {
        "type": "Point",
        "coordinates": [
          -113.956186,
          51.102980450000004
        ]
      }
    },
    {
      "type": "Feature",
      "properties": {
        "name": "44Th Avenue Ne",
        "transit_type": "MAX",
        "lines": [],
        "original_osm_names": "44th Avenue NE Station (NB) & 44th Avenue NE Station (SB)"
      },
      "geometry": {
        "type": "Point",
        "coordinates": [
          -113.958423,
          51.0914059
        ]
      }
    },
    {
      "type": "Feature",
      "properties": {
        "name": "Whitehorn Drive",
        "transit_type": "MAX",
        "lines": [
          "MAX Orange"
        ],
        "original_osm_names": "Whitehorn Drive Station (SB) & Whitehorn Drive Station (NB)"
      },
      "geometry": {
        "type": "Point",
        "coordinates": [
          -113.95842619999999,
          51.085858599999995
        ]
      }
    },
    {
      "type": "Feature",
      "properties": {
        "name": "32 Avenue Ne",
        "transit_type": "MAX",
        "lines": [
          "MAX Orange"
        ],
        "original_osm_names": "32 Avenue NE Station (SB) & 32 Avenue NE Station (NB)"
      },
      "geometry": {
        "type": "Point",
        "coordinates": [
          -113.95845585,
          51.08218495
        ]
      }
    },
    {
      "type": "Feature",
      "properties": {
        "name": "Rundleside Drive",
        "transit_type": "MAX",
        "lines": [
          "MAX Orange"
        ],
        "original_osm_names": "Rundleside Drive Station (WB) & Rundleside Drive Station (EB)"
      },
      "geometry": {
        "type": "Point",
        "coordinates": [
          -113.96976269999999,
          51.0814996
        ]
      }
    },
    {
      "type": "Feature",
      "properties": {
        "name": "Woodlands",
        "transit_type": "MAX",
        "lines": [
          "MAX Yellow"
        ],
        "original_osm_names": "Woodpark Station (NB)"
      },
      "geometry": {
        "type": "Point",
        "coordinates": [
          -114.1178294,
          50.936662
        ]
      }
    },
    {
      "type": "Feature",
      "properties": {
        "name": "17 Ave Se & 70Th St Se",
        "transit_type": "MAX",
        "lines": [
          "MAX Purple"
        ],
        "original_osm_names": "EB 17 Ave SE @ 70th St SE & WB 17 Ave SE @ 70th St SE"
      },
      "geometry": {
        "type": "Point",
        "coordinates": [
          -113.9303644,
          51.037831100000005
        ]
      }
    },
    {
      "type": "Feature",
      "properties": {
        "name": "Red Carpet",
        "transit_type": "MAX",
        "lines": [
          "MAX Purple"
        ],
        "original_osm_names": "EB 17 Ave SE @ 61st St SE & WB 17 Ave SE @ 61st St SE"
      },
      "geometry": {
        "type": "Point",
        "coordinates": [
          -113.94297885,
          51.0378623
        ]
      }
    },
    {
      "type": "Feature",
      "properties": {
        "name": "Southview",
        "transit_type": "MAX",
        "lines": [
          "MAX Purple"
        ],
        "original_osm_names": "26th Street SE Station (WB) & 26th Street SE Station (EB)"
      },
      "geometry": {
        "type": "Point",
        "coordinates": [
          -113.99401954999999,
          51.0375044
        ]
      }
    }
  ]
}
